{"type":"FeatureCollection","features":[{"type":"Feature","properties":{"marker-color":"#7e7e7e","marker-size":"medium","marker-symbol":"","Name":"Tyre shop"},"geometry":{"type":"Point","coordinates":[67.13883519172668,24.906300945285995]}},{"type":"Feature","properties":{"marker-color":"#7e7e7e","marker-size":"medium","marker-symbol":"","Name":"Tire shop1"},"geometry":{"type":"Point","coordinates":[67.1386943757534,24.90628695693]}},{"type":"Feature","properties":{"marker-color":"#7e7e7e","marker-size":"medium","marker-symbol":"","Name":"Pakeeza Juice Centre"},"geometry":{"type":"Point","coordinates":[67.13928647339344,24.907871888393252]}},{"type":"Feature","properties":{"marker-color":"#7e7e7e","marker-size":"medium","marker-symbol":"","Name":"Pan shop"},"geometry":{"type":"Point","coordinates":[67.13927306234837,24.90783174840027]}},{"type":"Feature","properties":{"marker-color":"#7e7e7e","marker-size":"medium","marker-symbol":"","Name":"Lucky Autos"},"geometry":{"type":"Point","coordinates":[67.13902495801449,24.907444944162084]}},{"type":"Feature","properties":{"marker-color":"#7e7e7e","marker-size":"medium","marker-symbol":"","Name":"Panaflex Printing"},"geometry":{"type":"Point","coordinates":[67.13896125555038,24.907340336518278]}},{"type":"Feature","properties":{"marker-color":"#7e7e7e","marker-size":"medium","marker-symbol":"","Name":"Masha Allah general store"},"geometry":{"type":"Point","coordinates":[67.13891230523586,24.907217483241993]}},{"type":"Feature","properties":{"marker-color":"#7e7e7e","marker-size":"medium","marker-symbol":"","Name":"Fruit vendors"},"geometry":{"type":"Point","coordinates":[67.13875204324722,24.906470629999706]}},{"type":"Feature","properties":{"marker-color":"#7e7e7e","marker-size":"medium","marker-symbol":"","Name":"AlRehman autos"},"geometry":{"type":"Point","coordinates":[67.13871784508228,24.90669870048391]}},{"type":"Feature","properties":{"marker-color":"#7e7e7e","marker-size":"medium","marker-symbol":"","Name":"Subhanallah Medical"},"geometry":{"type":"Point","coordinates":[67.13884457945824,24.90700583473657]}},{"type":"Feature","properties":{"marker-color":"#7e7e7e","marker-size":"medium","marker-symbol":"","Name":"One ten communication"},"geometry":{"type":"Point","coordinates":[67.13885128498077,24.90708672343236]}},{"type":"Feature","properties":{"marker-color":"#7e7e7e","marker-size":"medium","marker-symbol":"","Name":"Habib University"},"geometry":{"type":"Point","coordinates":[67.13837921619414,24.905963399731597]}},{"type":"Feature","properties":{"marker-color":"#7e7e7e","marker-size":"medium","marker-symbol":"","Name":"New Quetta Hotel"},"geometry":{"type":"Point","coordinates":[67.13904440402983,24.905958534203343]}},{"type":"Feature","properties":{"marker-color":"#7e7e7e","marker-size":"medium","marker-symbol":"","Name":"Mehran lab"},"geometry":{"type":"Point","coordinates":[67.13907122612,24.906002323950737]}},{"type":"Feature","properties":{"marker-color":"#7e7e7e","marker-size":"medium","marker-symbol":"","Name":"Khan Electronics"},"geometry":{"type":"Point","coordinates":[67.13906049728394,24.906119096534464]}},{"type":"Feature","properties":{"marker-color":"#7e7e7e","marker-size":"medium","marker-symbol":"","Name":"Jabbar Oil Change"},"geometry":{"type":"Point","coordinates":[67.13909804821014,24.906177482784894]}},{"type":"Feature","properties":{"marker-color":"#7e7e7e","marker-size":"medium","marker-symbol":"","Name":"Jazz Franchise"},"geometry":{"type":"Point","coordinates":[67.13911950588226,24.906357506883143]}},{"type":"Feature","properties":{"marker-color":"#7e7e7e","marker-size":"medium","marker-symbol":"","Name":"Vital H2O RO plant"},"geometry":{"type":"Point","coordinates":[67.13913559913635,24.906449951588304]}},{"type":"Feature","properties":{"marker-color":"#7e7e7e","marker-size":"medium","marker-symbol":"","Name":"Quetta Al naseeb hotel"},"geometry":{"type":"Point","coordinates":[67.1391624212265,24.906644571793827]}},{"type":"Feature","properties":{"marker-color":"#7e7e7e","marker-size":"medium","marker-symbol":"","Name":"Hamza Sweets"},"geometry":{"type":"Point","coordinates":[67.1392160654068,24.90696569446184]}},{"type":"Feature","properties":{"marker-color":"#7e7e7e","marker-size":"medium","marker-symbol":"","Name":"Al Hafiz photocopy"},"geometry":{"type":"Point","coordinates":[67.1392697095871,24.90703381128398]}},{"type":"Feature","properties":{"marker-color":"#7e7e7e","marker-size":"medium","marker-symbol":"","Name":"Talha Medical Supply"},"geometry":{"type":"Point","coordinates":[67.1393609046936,24.9071603138539]}},{"type":"Feature","properties":{"marker-color":"#7e7e7e","marker-size":"medium","marker-symbol":"","Name":"Makkah Plastics"},"geometry":{"type":"Point","coordinates":[67.13938772678375,24.907199237695494]}},{"type":"Feature","properties":{"marker-color":"#7e7e7e","marker-size":"medium","marker-symbol":"","Name":"Lasani Hotel"},"geometry":{"type":"Point","coordinates":[67.13935554027557,24.907316009146562]}},{"type":"Feature","properties":{"marker-color":"#7e7e7e","marker-size":"medium","marker-symbol":"","Name":"Irfan Sabzi shop"},"geometry":{"type":"Point","coordinates":[67.13940382003784,24.907486300647946]}},{"type":"Feature","properties":{"marker-color":"#7e7e7e","marker-size":"medium","marker-symbol":"","Name":"Geo Hair Saloon"},"geometry":{"type":"Point","coordinates":[67.13944673538207,24.90753008985317]}},{"type":"Feature","properties":{"marker-color":"#7e7e7e","marker-size":"medium","marker-symbol":"","Name":"Lahori Pakora"},"geometry":{"type":"Point","coordinates":[67.13944673538207,24.907595773631872]}},{"type":"Feature","properties":{"marker-color":"#7e7e7e","marker-size":"medium","marker-symbol":"","Name":"Adnan Chappal"},"geometry":{"type":"Point","coordinates":[67.13944673538207,24.907644428260237]}},{"type":"Feature","properties":{"marker-color":"#7e7e7e","marker-size":"medium","marker-symbol":"","Name":"Pak Nagori Milk"},"geometry":{"type":"Point","coordinates":[67.13954597711563,24.90790473019603]}},{"type":"Feature","properties":{"marker-color":"#7e7e7e","marker-size":"medium","marker-symbol":"","Name":"Mumtaz Steel Works"},"geometry":{"type":"Point","coordinates":[67.1388566493988,24.906368454286074]}},{"type":"Feature","properties":{"marker-color":"#7e7e7e","marker-size":"medium","marker-symbol":"","Name":"Berry line"},"geometry":{"type":"Point","coordinates":[67.13928043842316,24.9070885479888]}},{"type":"Feature","properties":{"marker-color":"#7e7e7e","marker-size":"medium","marker-symbol":"","Name":"Garment shop"},"geometry":{"type":"Point","coordinates":[67.13930591940878,24.907639562798266]}},{"type":"Feature","properties":{"marker-color":"#7e7e7e","marker-size":"medium","marker-symbol":"","Name":"Food Center"},"geometry":{"type":"Point","coordinates":[67.13922947645187,24.907419400443285]}},{"type":"Feature","properties":{"marker-color":"#7e7e7e","marker-size":"medium","marker-symbol":"","Name":"Aga Khan Lab"},"geometry":{"type":"Point","coordinates":[67.1390537917614,24.90606435939961]}},{"type":"Feature","properties":{"marker-color":"#7e7e7e","marker-size":"medium","marker-symbol":"","Name":"Mashallah burger"},"geometry":{"type":"Point","coordinates":[67.13932804763317,24.907261880727255]}},{"type":"Feature","properties":{"marker-color":"#7e7e7e","marker-size":"medium","marker-symbol":"","Name":"Pan shop"},"geometry":{"type":"Point","coordinates":[67.1393971145153,24.90747048787556]}},{"type":"Feature","properties":{"marker-color":"#7e7e7e","marker-size":"medium","marker-symbol":"","Name":"New Bilal Hardware"},"geometry":{"type":"Point","coordinates":[67.13903233408928,24.90749116611595]}},{"type":"Feature","properties":{"marker-color":"#7e7e7e","marker-size":"medium","marker-symbol":"","Name":"Chabi Maker"},"geometry":{"type":"Point","coordinates":[67.13911212980747,24.907509411619323]}},{"type":"Feature","properties":{"marker-color":"#7e7e7e","marker-size":"medium","marker-symbol":"","Name":"Sunbeam appartments"},"geometry":{"type":"Point","coordinates":[67.13904306292534,24.906160453464718]}}]}